{
  "RUN_MODES": [
    {"name": "Import Cookies", "value": "cookie"},
    {"name": "Tinder Swipe", "value": "swipe"}
  ],
  "HEADLESS_MODES": [
    {"name": "False", "value": false},
    {"name": "True", "value": true}
  ],
  "GEOLOCATIONS": [
    {"name": "Current Location", "location": {"latitude": 1111, "longitude": 1111}},
    {"name": "Binh Thanh", "location": {"latitude": 10.8121, "longitude": 106.6971}},
    {"name": "Hoan Kiem", "location": {"latitude": 21.0304, "longitude": 105.8446}},
    {"name": "Le Chan", "location": {"latitude": 20.8357, "longitude": 106.66699}},
    {"name": "Shen Zhen", "location": {"latitude": 22.6281, "longitude": 114.07002}},
    {"name": "Hong Kong", "location": {"latitude": 22.3529, "longitude": 113.9745}},
    {"name": "New York", "location": {"latitude": 40.697, "longitude": -74.144}}
  ],
  "BROWSER_VIEWPORT_SIZE": {
    "width": 1280,
    "height": 800
  },
  "BROWSER_USER_AGENT": "",
  "BLOCKED_URLS": [
    "doubleclick",
    "bugsnag"
  ]
}